[{"nombre": "Bright Horizons West Hampstead Day Nursery and Preschool", "latitud": 51.542959668140064, "longitud": -0.19108043435858235, "location": {"type": "Point", "coordinates": [51.542959668140064, -0.19108043435858235]}}, {"nombre": "New Birth Day Nursery", "latitud": 51.51645742, "longitud": -0.04587284, "location": {"type": "Point", "coordinates": [51.51645742, -0.04587284]}}, {"nombre": "Alice Model Nursery School", "latitud": 51.521197269794214, "longitud": -0.04655411635465775, "location": {"type": "Point", "coordinates": [51.521197269794214, -0.04655411635465775]}}, {"nombre": "DreamMaker Day Nursery", "latitud": 51.509388, "longitud": -0.07115, "location": {"type": "Point", "coordinates": [51.509388, -0.07115]}}, {"nombre": "Low Hall Nursery", "latitud": 51.522667, "longitud": -0.046913, "location": {"type": "Point", "coordinates": [51.522667, -0.046913]}}, {"nombre": "Academic Day Nursery", "latitud": 51.55603, "longitud": -0.089608, "location": {"type": "Point", "coordinates": [51.55603, -0.089608]}}, {"nombre": "Weavers Fields Community Nursery", "latitud": 51.524844, "longitud": -0.062172, "location": {"type": "Point", "coordinates": [51.524844, -0.062172]}}, {"nombre": "Tiddley Tots Nursery", "latitud": 51.56189, "longitud": -0.07865, "location": {"type": "Point", "coordinates": [51.56189, -0.07865]}}, {"nombre": "Bright Horizons Spitalfields Day Nursery and Preschool", "latitud": 51.520313793033694, "longitud": -0.0749744024467418, "location": {"type": "Point", "coordinates": [51.520313793033694, -0.0749744024467418]}}, {"nombre": "Monkey Puzzle Day Nursery", "latitud": 51.552354144582274, "longitud": -0.10170992763306014, "location": {"type": "Point", "coordinates": [51.552354144582274, -0.10170992763306014]}}, {"nombre": "Bright Horizons Peckham Rye Day Nursery and Preschool", "latitud": 51.461035355708354, "longitud": -0.058626209821682096, "location": {"type": "Point", "coordinates": [51.461035355708354, -0.058626209821682096]}}, {"nombre": "Kidsunlimited Ladbroke Grove Day Nursery", "latitud": 51.50946363132844, "longitud": -0.20395517349243164, "location": {"type": "Point", "coordinates": [51.50946363132844, -0.20395517349243164]}}, {"nombre": "Pumphouse Nursery & Family Club", "latitud": 51.506306, "longitud": -0.037335344, "location": {"type": "Point", "coordinates": [51.506306, -0.037335344]}}, {"nombre": "Sahan Preschool Day Nursery Limited", "latitud": 51.5393219, "longitud": 0.029422500000009677, "location": {"type": "Point", "coordinates": [51.5393219, 0.029422500000009677]}}, {"nombre": "Nursery Road Playing Fields", "latitud": 51.41148010192757, "longitud": -0.1966381072998047, "location": {"type": "Point", "coordinates": [51.41148010192757, -0.1966381072998047]}}, {"nombre": "Little Acorns Day Nursery", "latitud": 51.4976052, "longitud": -0.0622602, "location": {"type": "Point", "coordinates": [51.4976052, -0.0622602]}}, {"nombre": "Bright Horizons Lee Park Day Nursery and Preschool", "latitud": 51.45809100032305, "longitud": 0.006151866594564126, "location": {"type": "Point", "coordinates": [51.45809100032305, 0.006151866594564126]}}, {"nombre": "Clockhouse Nursery", "latitud": 51.66808759703193, "longitud": -0.062157058689533154, "location": {"type": "Point", "coordinates": [51.66808759703193, -0.062157058689533154]}}, {"nombre": "Holmewood Nursery School & Treehouse Children's Centre", "latitud": 51.44738833250873, "longitud": -0.12067940380371885, "location": {"type": "Point", "coordinates": [51.44738833250873, -0.12067940380371885]}}, {"nombre": "Bright Horizons Battersea Day Nursery and Preschool", "latitud": 51.471329571916726, "longitud": -0.16503518749959767, "location": {"type": "Point", "coordinates": [51.471329571916726, -0.16503518749959767]}}, {"nombre": "Bright Horizons West Norwood Day Nursery and Preschool", "latitud": 51.435222, "longitud": -0.095321, "location": {"type": "Point", "coordinates": [51.435222, -0.095321]}}, {"nombre": "Kids R Kids Day Nursery Ltd", "latitud": 51.4314691, "longitud": -0.0168623, "location": {"type": "Point", "coordinates": [51.4314691, -0.0168623]}}, {"nombre": "Limehouse Arches Day Nursery Ltd", "latitud": 51.51018479243817, "longitud": -0.02545952796936035, "location": {"type": "Point", "coordinates": [51.51018479243817, -0.02545952796936035]}}, {"nombre": "Mary Paterson Nursery School", "latitud": 51.527769576550604, "longitud": -0.20198106765747068, "location": {"type": "Point", "coordinates": [51.527769576550604, -0.20198106765747068]}}, {"nombre": "Bright Horizons Westferry Circus Day Nursery and Preschool", "latitud": 51.506447, "longitud": -0.026378, "location": {"type": "Point", "coordinates": [51.506447, -0.026378]}}, {"nombre": "Bright Horizons Elizabeth Terrace Day Nursery and Preschool", "latitud": 51.44958328789919, "longitud": 0.05307469723879876, "location": {"type": "Point", "coordinates": [51.44958328789919, 0.05307469723879876]}}, {"nombre": "Dawmouse Montessori Nursery School", "latitud": 51.48283, "longitud": -0.20268, "location": {"type": "Point", "coordinates": [51.48283, -0.20268]}}, {"nombre": "Bright Horizons Muswell Hill Day Nursery and Preschool", "latitud": 51.59115, "longitud": -0.15075, "location": {"type": "Point", "coordinates": [51.59115, -0.15075]}}, {"nombre": "Bright Horizons New Beckenham Day Nursery and Preschool", "latitud": 51.4175833, "longitud": -0.0368168, "location": {"type": "Point", "coordinates": [51.4175833, -0.0368168]}}, {"nombre": "Bright Horizons Chantry Hall Day Nursery and Preschool", "latitud": 51.59926690191452, "longitud": -0.1352419123601294, "location": {"type": "Point", "coordinates": [51.59926690191452, -0.1352419123601294]}}]