[{"name": "Bar Ingl\u00eas", "latitud": 38.733535, "longitud": -9.15359, "shortname": "Caf\u00e9", "location": {"type": "Point", "coordinates": [38.733535, -9.15359]}}, {"name": "Bar da Gabriela (UNL)", "latitud": 38.732615797252514, "longitud": -9.160076155666383, "shortname": "Breakfast", "location": {"type": "Point", "coordinates": [38.732615797252514, -9.160076155666383]}}, {"name": "Lobby Bar", "latitud": 38.731618990174006, "longitud": -9.147020184575085, "shortname": "Hotel Bar", "location": {"type": "Point", "coordinates": [38.731618990174006, -9.147020184575085]}}, {"name": "Bar - NovaSBE", "latitud": 38.73267364501953, "longitud": -9.160404205322266, "shortname": "Cafeteria", "location": {"type": "Point", "coordinates": [38.73267364501953, -9.160404205322266]}}, {"name": "Benifit Brow Bar El Corte Ingl\u00e9s", "latitud": 38.73834505890614, "longitud": -9.151801515541916, "shortname": "Salon / Barbershop", "location": {"type": "Point", "coordinates": [38.73834505890614, -9.151801515541916]}}, {"name": "Bar - Santander Totta HQ", "latitud": 38.73601287765233, "longitud": -9.16077463049988, "shortname": "Cafeteria", "location": {"type": "Point", "coordinates": [38.73601287765233, -9.16077463049988]}}, {"name": "SANA Hotel Bar", "latitud": 38.727673, "longitud": -9.14856, "shortname": "Hotel Bar", "location": {"type": "Point", "coordinates": [38.727673, -9.14856]}}, {"name": "Bar - Ritz Four Seasons Lisboa", "latitud": 38.72570915235862, "longitud": -9.154862110607944, "shortname": "Hotel Bar", "location": {"type": "Point", "coordinates": [38.72570915235862, -9.154862110607944]}}, {"name": "Bar Central", "latitud": 38.73657719136005, "longitud": -9.139572544034095, "shortname": "Cafeteria", "location": {"type": "Point", "coordinates": [38.73657719136005, -9.139572544034095]}}, {"name": "Lost In - Esplanada Bar", "latitud": 38.71610571542571, "longitud": -9.145889494839748, "shortname": "Bar", "location": {"type": "Point", "coordinates": [38.71610571542571, -9.145889494839748]}}, {"name": "Sky Bar", "latitud": 38.72088471662361, "longitud": -9.14716860014415, "shortname": "Roof Deck", "location": {"type": "Point", "coordinates": [38.72088471662361, -9.14716860014415]}}, {"name": "Baixa Bar, PortoBay Marqu\u00eas", "latitud": 38.723852, "longitud": -9.149856, "shortname": "Hotel Bar", "location": {"type": "Point", "coordinates": [38.723852, -9.149856]}}, {"name": "Sushi Bar", "latitud": 38.733016, "longitud": -9.152465, "shortname": "Sushi", "location": {"type": "Point", "coordinates": [38.733016, -9.152465]}}, {"name": "Esplanada do Bar de Civil", "latitud": 38.7369236854376, "longitud": -9.140003777464319, "shortname": "Caf\u00e9", "location": {"type": "Point", "coordinates": [38.7369236854376, -9.140003777464319]}}, {"name": "Upscale Bar", "latitud": 38.72456268661531, "longitud": -9.15845654612255, "shortname": "Hotel Bar", "location": {"type": "Point", "coordinates": [38.72456268661531, -9.15845654612255]}}, {"name": "Bar da Bola", "latitud": 38.73614370414206, "longitud": -9.137822091579437, "shortname": "Sports Bar", "location": {"type": "Point", "coordinates": [38.73614370414206, -9.137822091579437]}}, {"name": "Ibis Bar", "latitud": 38.737184618637855, "longitud": -9.162618476672206, "shortname": "Hotel Bar", "location": {"type": "Point", "coordinates": [38.737184618637855, -9.162618476672206]}}, {"name": "Holiday Inn Bar", "latitud": 38.73784988847274, "longitud": -9.14113998413086, "shortname": "Hotel Bar", "location": {"type": "Point", "coordinates": [38.73784988847274, -9.14113998413086]}}, {"name": "Snack-Bar 120", "latitud": 38.73296123320884, "longitud": -9.152839361525261, "shortname": "Snacks", "location": {"type": "Point", "coordinates": [38.73296123320884, -9.152839361525261]}}, {"name": "Bar de Mec\u00e2nica", "latitud": 38.737696947800394, "longitud": -9.137278488581355, "shortname": "Caf\u00e9", "location": {"type": "Point", "coordinates": [38.737696947800394, -9.137278488581355]}}, {"name": "City Bar", "latitud": 38.74233357578208, "longitud": -9.14473224066483, "shortname": "Karaoke", "location": {"type": "Point", "coordinates": [38.74233357578208, -9.14473224066483]}}, {"name": "Cockpit Bar", "latitud": 38.74459309764922, "longitud": -9.14112849285227, "shortname": "Pub", "location": {"type": "Point", "coordinates": [38.74459309764922, -9.14112849285227]}}, {"name": "CGD - Bar", "latitud": 38.741548747762444, "longitud": -9.141547679901123, "shortname": "Corporate Cafeteria", "location": {"type": "Point", "coordinates": [38.741548747762444, -9.141547679901123]}}, {"name": "Bar Gelato", "latitud": 38.707453, "longitud": -9.14452, "shortname": "Ice Cream", "location": {"type": "Point", "coordinates": [38.707453, -9.14452]}}, {"name": "Oito Nove Bar", "latitud": 38.71203742358555, "longitud": -9.14456165759464, "shortname": "Bar", "location": {"type": "Point", "coordinates": [38.71203742358555, -9.14456165759464]}}, {"name": "Bar (Faculdade Ci\u00eancias M\u00e9dicas - NOVA)", "latitud": 38.71973697536493, "longitud": -9.138937666465123, "shortname": "Caf\u00e9", "location": {"type": "Point", "coordinates": [38.71973697536493, -9.138937666465123]}}, {"name": "Rooftop Bar Varanda do Castelo", "latitud": 38.71996002459234, "longitud": -9.14566120198919, "shortname": "Hotel Bar", "location": {"type": "Point", "coordinates": [38.71996002459234, -9.14566120198919]}}, {"name": "Bar - Heritage Liberdade", "latitud": 38.71754455566406, "longitud": -9.142694473266602, "shortname": "Hotel Bar", "location": {"type": "Point", "coordinates": [38.71754455566406, -9.142694473266602]}}, {"name": "Snack-Bar Gr\u00e3 Via", "latitud": 38.75120122352884, "longitud": -9.149202952115532, "shortname": "Portuguese", "location": {"type": "Point", "coordinates": [38.75120122352884, -9.149202952115532]}}, {"name": "Bambu Bar", "latitud": 38.71662570429049, "longitud": -9.142880757533007, "shortname": "Bar", "location": {"type": "Point", "coordinates": [38.71662570429049, -9.142880757533007]}}]