[{"name": "Esta\u00e7\u00e3o Ferrovi\u00e1ria de Entrecampos", "latitud": 38.744561584047275, "longitud": -9.148288074278257, "shortname": "Train Station", "location": {"type": "Point", "coordinates": [38.744561584047275, -9.148288074278257]}}, {"name": "Esta\u00e7\u00e3o Ferrovi\u00e1ria do Cais do Sodr\u00e9", "latitud": 38.70609407712645, "longitud": -9.14546603368594, "shortname": "Train Station", "location": {"type": "Point", "coordinates": [38.70609407712645, -9.14546603368594]}}, {"name": "Esta\u00e7\u00e3o Ferrovi\u00e1ria de Sete Rios", "latitud": 38.74038265906495, "longitud": -9.166768142437737, "shortname": "Train Station", "location": {"type": "Point", "coordinates": [38.74038265906495, -9.166768142437737]}}, {"name": "Esta\u00e7\u00e3o Ferrovi\u00e1ria do Rossio", "latitud": 38.714373031702785, "longitud": -9.141131822348639, "shortname": "Train Station", "location": {"type": "Point", "coordinates": [38.714373031702785, -9.141131822348639]}}, {"name": "Esta\u00e7\u00e3o Ferrovi\u00e1ria de Campolide", "latitud": 38.73249373459403, "longitud": -9.168047904968262, "shortname": "Train Station", "location": {"type": "Point", "coordinates": [38.73249373459403, -9.168047904968262]}}, {"name": "Esta\u00e7\u00e3o Ferrovi\u00e1ria Roma-Areeiro", "latitud": 38.74578386810821, "longitud": -9.135413981212766, "shortname": "Train Station", "location": {"type": "Point", "coordinates": [38.74578386810821, -9.135413981212766]}}, {"name": "Esta\u00e7\u00e3o Ferrovi\u00e1ria de Santos", "latitud": 38.70626420802433, "longitud": -9.155230753167675, "shortname": "Train Station", "location": {"type": "Point", "coordinates": [38.70626420802433, -9.155230753167675]}}, {"name": "Esta\u00e7\u00e3o Ferrovi\u00e1ria de Santa Apol\u00f3nia", "latitud": 38.71392271378014, "longitud": -9.122520346454769, "shortname": "Train Station", "location": {"type": "Point", "coordinates": [38.71392271378014, -9.122520346454769]}}, {"name": "Esta\u00e7\u00e3o Ferrovi\u00e1ria de Alc\u00e2ntara-Mar", "latitud": 38.70234483564965, "longitud": -9.174231558360525, "shortname": "Train Station", "location": {"type": "Point", "coordinates": [38.70234483564965, -9.174231558360525]}}, {"name": "Esta\u00e7\u00e3o Ferrovi\u00e1ria de Sintra", "latitud": 38.79941475060005, "longitud": -9.385602205595362, "shortname": "Train Station", "location": {"type": "Point", "coordinates": [38.79941475060005, -9.385602205595362]}}, {"name": "Esta\u00e7\u00e3o Ferrovi\u00e1ria de Cascais", "latitud": 38.70092917506054, "longitud": -9.417785273811527, "shortname": "Train Station", "location": {"type": "Point", "coordinates": [38.70092917506054, -9.417785273811527]}}, {"name": "Esta\u00e7\u00e3o Ferrovi\u00e1ria de Benfica", "latitud": 38.744408889333705, "longitud": -9.200104962385351, "shortname": "Train Station", "location": {"type": "Point", "coordinates": [38.744408889333705, -9.200104962385351]}}, {"name": "Esta\u00e7\u00e3o Ferrovi\u00e1ria de Alc\u00e2ntara-Terra", "latitud": 38.707096752773815, "longitud": -9.173272848129272, "shortname": "Train Station", "location": {"type": "Point", "coordinates": [38.707096752773815, -9.173272848129272]}}, {"name": "Esta\u00e7\u00e3o Ferrovi\u00e1ria da Reboleira", "latitud": 38.751175214969734, "longitud": -9.222892539986193, "shortname": "Train Station", "location": {"type": "Point", "coordinates": [38.751175214969734, -9.222892539986193]}}, {"name": "Esta\u00e7\u00e3o Ferrovi\u00e1ria de Marvila", "latitud": 38.73892815277277, "longitud": -9.109071718276093, "shortname": "Train Station", "location": {"type": "Point", "coordinates": [38.73892815277277, -9.109071718276093]}}, {"name": "Esta\u00e7\u00e3o Ferrovi\u00e1ria de Amadora", "latitud": 38.75957925166869, "longitud": -9.235298275693017, "shortname": "Train Station", "location": {"type": "Point", "coordinates": [38.75957925166869, -9.235298275693017]}}, {"name": "Esta\u00e7\u00e3o Ferrovi\u00e1ria de Vila Franca de Xira", "latitud": 38.95588023121359, "longitud": -8.986211299936684, "shortname": "Train Station", "location": {"type": "Point", "coordinates": [38.95588023121359, -8.986211299936684]}}, {"name": "Esta\u00e7\u00e3o Ferrovi\u00e1ria de Massam\u00e1 - Barcarena", "latitud": 38.751726452873974, "longitud": -9.28401299839715, "shortname": "Train Station", "location": {"type": "Point", "coordinates": [38.751726452873974, -9.28401299839715]}}, {"name": "Esta\u00e7\u00e3o Ferrovi\u00e1ria de Santa Cruz-Damaia", "latitud": 38.746778708239134, "longitud": -9.212583303451538, "shortname": "Train Station", "location": {"type": "Point", "coordinates": [38.746778708239134, -9.212583303451538]}}, {"name": "Esta\u00e7\u00e3o Ferrovi\u00e1ria de Corroios", "latitud": 38.63659244180121, "longitud": -9.15177139315812, "shortname": "Train Station", "location": {"type": "Point", "coordinates": [38.63659244180121, -9.15177139315812]}}, {"name": "Esta\u00e7\u00e3o Ferrovi\u00e1ria de Queluz-Belas", "latitud": 38.75891081006165, "longitud": -9.257108460971905, "shortname": "Train Station", "location": {"type": "Point", "coordinates": [38.75891081006165, -9.257108460971905]}}, {"name": "Esta\u00e7\u00e3o Ferrovi\u00e1ria de Alg\u00e9s", "latitud": 38.69838740671621, "longitud": -9.228944833277145, "shortname": "Train Station", "location": {"type": "Point", "coordinates": [38.69838740671621, -9.228944833277145]}}, {"name": "Esta\u00e7\u00e3o Ferrovi\u00e1ria de Carcavelos", "latitud": 38.68797547767955, "longitud": -9.337212118576021, "shortname": "Train Station", "location": {"type": "Point", "coordinates": [38.68797547767955, -9.337212118576021]}}, {"name": "Esta\u00e7\u00e3o Ferrovi\u00e1ria da P\u00f3voa de Santa Iria", "latitud": 38.85932650604486, "longitud": -9.064375162124634, "shortname": "Train Station", "location": {"type": "Point", "coordinates": [38.85932650604486, -9.064375162124634]}}, {"name": "Esta\u00e7\u00e3o Ferrovi\u00e1ria dos Foros de Amora", "latitud": 38.62075124895803, "longitud": -9.12877868630561, "shortname": "Train Station", "location": {"type": "Point", "coordinates": [38.62075124895803, -9.12877868630561]}}, {"name": "Esta\u00e7\u00e3o Ferrovi\u00e1ria da Parede", "latitud": 38.689882120937824, "longitud": -9.356729992356783, "shortname": "Train Station", "location": {"type": "Point", "coordinates": [38.689882120937824, -9.356729992356783]}}, {"name": "Esta\u00e7\u00e3o Ferrovi\u00e1ria do Pragal", "latitud": 38.665997807717815, "longitud": -9.179997078039102, "shortname": "Train Station", "location": {"type": "Point", "coordinates": [38.665997807717815, -9.179997078039102]}}, {"name": "Esta\u00e7\u00e3o Ferrovi\u00e1ria de Baixa da Banheira", "latitud": 38.659388671172806, "longitud": -9.04369622107579, "shortname": "Train Station", "location": {"type": "Point", "coordinates": [38.659388671172806, -9.04369622107579]}}, {"name": "Esta\u00e7\u00e3o Ferrovi\u00e1ria de Oeiras", "latitud": 38.688573616409776, "longitud": -9.318358387944388, "shortname": "Train Station", "location": {"type": "Point", "coordinates": [38.688573616409776, -9.318358387944388]}}, {"name": "Esta\u00e7\u00e3o Ferrovi\u00e1ria de S\u00e3o Jo\u00e3o do Estoril", "latitud": 38.70123591732068, "longitud": -9.385886192321777, "shortname": "Train Station", "location": {"type": "Point", "coordinates": [38.70123591732068, -9.385886192321777]}}]